~Version Information
 VERS.                  2.0
 WRAP.                  NO
~Well Information
 STRT      .M           1000.0 : START DEPTH
 STOP      .M           2000.0 : STOP DEPTH
 STEP      .M           2.004 : STEP
 NULL      .            -999.25 : NULL VALUE
 WELL      .            SAMPLE_WELL_1 : WELL
 DATE      .            2023-01-01 : LOG DATE
~Curve Information
 DEPT      .M           : DEPTH
 GR        .API         : GAMMA RAY
 DT        .US/M        : SONIC TRANSIT TIME
 RHOB      .G/C3        : BULK DENSITY
 RT        .OHMM        : RESISTIVITY
~ASCII Log Data
# ...
   1348.7    74.64   148.62    2.217    15.97
   1350.7    77.77   150.32    2.241    14.36
   1352.7    75.38   149.64    2.190    15.52
   1354.7    81.94   156.98    2.260    15.69
   1356.7    75.80   155.16    2.230    15.20
   1358.7    88.40   156.26    2.231    13.97
   1360.7    80.60   155.18    2.288    14.55
   1362.7    75.18   150.87    2.343    14.11
   1364.7    74.76   152.74    2.330    13.31
   1366.7    81.33   155.66    2.237    14.19
   1368.7    78.77   151.80    2.266    12.88
   1370.7    82.72   157.09    2.350    14.66
   1372.7    81.86   155.18    2.280    13.22
   1374.7    79.71   155.35    2.316    13.63
   1376.8    76.56   158.60    2.354    13.57
   1378.8    73.75   158.49    2.300    13.01
   1380.8    77.81   157.06    2.349    13.55
   1382.8    82.72   161.47    2.298    12.57
   1384.8    79.78   156.50    2.334    13.50
   1386.8    73.48   161.40    2.377    11.58
   1388.8    78.63   162.01    2.307    12.61
   1390.8    78.87   160.44    2.395    13.91
   1392.8    73.11   162.74    2.383    11.41
   1394.8    76.51   159.52    2.413    11.51
   1396.8    75.31   165.70    2.406    12.30
   1398.8    69.62   163.68    2.458    11.87
   1400.8    74.67   163.60    2.414    11.84
   1402.8    74.48   168.30    2.398    11.78
   1404.8    75.50   164.70    2.427    11.73
   1406.8    74.27   163.73    2.449    11.93
   1408.8    63.37   164.15    2.435    11.20
   1410.8    63.92   170.36    2.441    10.50
   1412.8    68.48   166.44    2.417    11.05
   1414.8    67.18   174.83    2.424    11.86
   1416.8    65.86   166.04    2.400    10.05
   1418.8    77.86   176.29    2.531     9.19
   1420.8    63.35   173.37    2.416    10.68
   1422.8    64.21   173.38    2.443     9.51
   1424.8    62.07   173.05    2.447     7.68
   1426.9    59.44   176.18    2.516     9.92
   1428.9    54.14   175.85    2.473     8.62
   1430.9    57.01   179.45    2.539     8.79
   1432.9    49.45   177.72    2.466     8.95
   1434.9    50.18   178.53    2.508     8.65
   1436.9    47.78   177.95    2.467     8.88
   1438.9    48.66   179.41    2.590     7.78
   1440.9    56.22   180.99    2.460     8.36
   1442.9    38.15   176.59    2.523     7.56
   1444.9    47.05   178.13    2.539     8.18
   1446.9    36.58   183.96    2.533     7.90
   1448.9    39.91   183.11    2.511     6.48
   1450.9    44.96   182.78    2.515     7.92
   1452.9    39.72   183.81    2.524     6.45
   1454.9    34.05   185.14    2.518     7.35
   1456.9    34.46   183.40    2.564     6.83
   1458.9    39.06   183.24    2.616     7.84
   1460.9    32.50   186.09    2.506     6.03
   1462.9    35.43   183.54    2.474     5.76
   1464.9    33.95   187.36    2.526     5.87
   1466.9    30.44   182.40    2.633     5.48
   1468.9    40.98   189.52    2.498     6.21
   1470.9    34.36   188.38    2.595     4.13
   1472.9    23.23   188.06    2.597     4.43
   1474.9    31.65   190.06    2.507     4.28
   1477.0    27.92   191.92    2.551     5.75
   1479.0    33.71   190.40    2.592     6.23
   1481.0    26.95   183.35    2.510     4.64
   1483.0    29.56   184.79    2.516     4.46
   1485.0    32.02   186.44    2.499     4.53
   1487.0    33.53   188.04    2.480     5.28
   1489.0    25.41   189.20    2.492     3.50
   1491.0    29.10   185.99    2.466     4.32
   1493.0    28.85   188.14    2.514     4.80
   1495.0    28.52   185.62    2.479     4.32
   1497.0    38.66   185.77    2.516     3.98
   1499.0    33.76   183.54    2.441     4.54
   1501.0    27.72   184.48    2.513     1.49
   1503.0    37.12   183.10    2.529     4.11
   1505.0    42.70   183.71    2.412     2.97
   1507.0    39.17   188.41    2.503     1.96
   1509.0    29.85   183.00    2.533     3.77
   1511.0    34.95   191.52    2.431     4.39
   1513.0    42.97   185.71    2.542     3.13
   1515.0    36.15   184.45    2.487     3.95
   1517.0    41.88   181.33    2.437     4.44
   1519.0    44.37   184.68    2.457     4.16
   1521.0    38.78   180.92    2.477     4.39
   1523.0    43.51   182.07    2.452     3.64
   1525.1    32.08   187.54    2.465     3.09
   1527.1    42.28   180.26    2.401     1.73
   1529.1    46.72   182.71    2.439     2.81
   1531.1    44.12   177.40    2.370     2.33
   1533.1    57.04   178.37    2.416     4.74
   1535.1    46.21   182.17    2.378     2.87
   1537.1    51.59   175.45    2.378     3.12
   1539.1    55.31   180.80    2.451     3.48
   1541.1    61.98   177.28    2.439     3.10
   1543.1    51.90   173.34    2.413     4.45
   1545.1    63.71   175.55    2.339     2.63
   1547.1    60.51   175.61    2.363     3.33
   1549.1    57.93   173.94    2.418     2.62
   1551.1    65.07   167.67    2.369     2.21
   1553.1    65.35   168.97    2.449     2.84
   1555.1    63.46   169.37    2.366     3.36
   1557.1    67.41   169.00    2.351     3.12
   1559.1    66.82   169.94    2.324     2.98
   1561.1    70.00   168.04    2.336     2.49
   1563.1    73.34   163.46    2.318     3.63
   1565.1    78.12   166.97    2.346     2.58
   1567.1    67.86   166.77    2.349     4.49
   1569.1    82.32   165.87    2.273     4.04
   1571.1    66.89   166.42    2.245     2.91
   1573.1    74.94   165.05    2.219     3.94
   1575.2    78.68   163.39    2.306     3.70
   1577.2    78.16   161.35    2.236     4.67
   1579.2    75.19   156.67    2.188     5.61
   1581.2    77.41   161.22    2.283     3.17
   1583.2    76.76   160.00    2.362     4.89
   1585.2    76.79   159.52    2.256     4.80
   1587.2    82.87   155.03    2.284     5.60
   1589.2    81.15   154.93    2.249     5.38
   1591.2    77.13   159.69    2.236     4.75
   1593.2    83.58   156.42    2.272     5.25
   1595.2    81.22   157.70    2.218     5.02
   1597.2    83.17   155.58    2.236     6.67
   1599.2    82.28   155.12    2.233     5.99
   1601.2    76.21   156.96    2.189     7.65
   1603.2    76.96   152.93    2.252     6.24
   1605.2    81.80   154.09    2.201     5.89
   1607.2    80.77   152.35    2.174     5.42
   1609.2    77.70   152.12    2.222     5.36
   1611.2    77.62   152.16    2.161     5.71
   1613.2    81.57   153.25    2.194     7.36
   1615.2    73.32   151.29    2.190     7.73
   1617.2    77.04   155.46    2.231     6.24
   1619.2    73.14   149.95    2.204     8.40
   1621.2    72.11   151.62    2.181     7.48
   1623.2    76.35   150.93    2.213     8.16
   1625.3    74.18   155.62    2.233     9.52
   1627.3    73.00   152.50    2.198     9.13
   1629.3    73.79   154.63    2.175     8.38
   1631.3    67.43   148.42    2.121     8.07
   1633.3    68.81   152.92    2.129     7.25
   1635.3    63.54   154.62    2.159     8.58
   1637.3    64.74   152.79    2.146     9.17
   1639.3    61.56   155.47    2.163     8.73
   1641.3    61.09   151.77    2.172     9.60
   1643.3    61.68   156.87    2.191     9.95
   1645.3    54.61   159.41    2.168     9.89
   1647.3    64.83   153.11    2.190     9.73
   1649.3    51.00   153.29    2.174    10.57
   1651.3    48.74   158.45    2.094    10.97
   1653.3    56.80   159.21    2.137     9.92
   1655.3    53.92   154.43    2.170    12.09
   1657.3    51.85   155.19    2.129    11.06
   1659.3    50.48   156.07    2.203    11.33
   1661.3    46.56   153.97    2.243    12.05
   1663.3    41.68   155.62    2.233    11.83
   1665.3    44.27   156.01    2.178    12.57
   1667.3    39.99   157.23    2.249    12.20
   1669.3    45.38   159.71    2.199    11.64
   1671.3    39.71   161.05    2.182    12.58
   1673.3    35.86   165.03    2.175    11.53
   1675.4    36.80   159.37    2.191    12.68
   1677.4    38.71   165.05    2.191    12.71
   1679.4    33.84   162.79    2.218    12.72
   1681.4    31.90   163.95    2.222    12.92
   1683.4    35.32   166.52    2.220    11.65
   1685.4    34.55   162.80    2.242    12.85
   1687.4    30.84   167.35    2.277    13.49
   1689.4    30.36   167.60    2.272    13.67
   1691.4    32.62   169.20    2.180    12.83
   1693.4    25.42   169.49    2.142    14.78
   1695.4    25.18   175.71    2.287    13.19
