~Version Information
 VERS.                  2.0
 WRAP.                  NO
~Well Information
 STRT      .M           1000.0 : START DEPTH
 STOP      .M           2000.0 : STOP DEPTH
 STEP      .M           2.004 : STEP
 NULL      .            -999.25 : NULL VALUE
 WELL      .            SAMPLE_WELL_1 : WELL
 DATE      .            2023-01-01 : LOG DATE
~Curve Information
 DEPT      .M           : DEPTH
 GR        .API         : GAMMA RAY
 DT        .US/M        : SONIC TRANSIT TIME
 RHOB      .G/C3        : BULK DENSITY
 RT        .OHMM        : RESISTIVITY
~ASCII Log Data
# ...
   1697.4    27.61   168.78    2.201    14.76
   1699.4    29.39   169.85    2.252    14.43
   1701.4    31.33   170.42    2.220    13.67
   1703.4    35.91   171.38    2.200    15.69
   1705.4    33.44   171.96    2.300    13.40
   1707.4    29.46   177.31    2.315    15.17
   1709.4    30.19   178.66    2.268    15.32
   1711.4    26.50   174.45    2.193    14.05
   1713.4    30.77   174.55    2.281    15.76
   1715.4    30.10   178.54    2.325    14.51
   1717.4    33.03   176.71    2.257    14.99
   1719.4    28.99   180.38    2.330    15.02
   1721.4    35.01   179.99    2.328    14.75
   1723.4    39.77   176.37    2.359    15.54
   1725.5    33.99   184.68    2.347    15.56
   1727.5    36.87   185.93    2.310    13.55
   1729.5    38.94   180.52    2.403    16.02
   1731.5    35.55   181.66    2.355    13.66
   1733.5    39.08   183.90    2.367    15.82
   1735.5    39.32   184.56    2.337    15.90
   1737.5    40.80   185.87    2.364    14.13
   1739.5    38.50   189.73    2.352    14.66
   1741.5    42.92   184.71    2.387    14.09
   1743.5    46.08   183.57    2.469    14.79
   1745.5    51.20   182.51    2.352    14.69
   1747.5    50.57   184.48    2.348    15.53
   1749.5    56.71   186.55    2.478    15.91
   1751.5    46.41   191.41    2.417    15.94
   1753.5    54.38   185.89    2.404    14.33
   1755.5    53.04   187.96    2.478    14.56
   1757.5    62.49   187.55    2.418    13.32
   1759.5    51.93   190.71    2.521    13.96
   1761.5    53.23   194.18    2.480    15.31
   1763.5    55.62   186.61    2.439    15.75
   1765.5    50.94   186.76    2.550    13.39
   1767.5    58.73   190.61    2.445    13.82
   1769.5    59.18   189.68    2.503    14.19
   1771.5    64.17   192.53    2.490    14.34
   1773.5    66.27   189.28    2.535    13.37
   1775.6    73.71   186.79    2.550    14.25
   1777.6    71.26   189.00    2.493    13.42
   1779.6    66.37   190.09    2.465    13.68
   1781.6    66.26   189.14    2.517    14.01
   1783.6    72.95   188.08    2.476    13.45
   1785.6    66.78   189.18    2.587    12.97
   1787.6    80.40   189.10    2.515    13.10
   1789.6    78.75   189.26    2.498    12.99
   1791.6    73.05   187.03    2.522    12.62
   1793.6    68.91   184.56    2.464    12.57
   1795.6    81.94   184.89    2.481    13.91
   1797.6    76.76   187.05    2.570    12.93
   1799.6    82.79   181.48    2.497    12.09
   1801.6    72.00   183.90    2.483    12.73
   1803.6    76.45   181.42    2.548    11.75
   1805.6    79.26   181.89    2.575    12.79
   1807.6    79.74   184.39    2.557    11.99
   1809.6    77.98   181.04    2.569    11.44
   1811.6    82.42   180.02    2.500    11.71
   1813.6    75.73   175.82    2.473     9.93
   1815.6    79.41   180.39    2.590    10.11
   1817.6    80.37   179.42    2.517     9.88
   1819.6    81.76   182.49    2.519    10.77
   1821.6    82.29   175.57    2.582    11.86
   1823.6    74.61   176.13    2.550    12.08
   1825.7    72.55   175.44    2.544    10.63
   1827.7    83.30   177.98    2.611    10.34
   1829.7    78.95   173.01    2.497     8.31
   1831.7    73.98   173.16    2.558     9.13
   1833.7    82.46   173.18    2.521     8.75
   1835.7    75.93   171.33    2.527     8.70
   1837.7    79.33   168.95    2.575     8.88
   1839.7    73.97   169.75    2.531     8.45
   1841.7    80.96   171.15    2.530     7.06
   1843.7    78.70   165.10    2.548     9.06
   1845.7    69.59   167.20    2.487     7.42
   1847.7    73.33   164.34    2.464     8.28
   1849.7    70.83   168.30    2.452     9.57
   1851.7    72.49   160.73    2.411     6.99
   1853.7    61.88   162.38    2.568     5.52
   1855.7    67.17   163.98    2.437     7.14
   1857.7    67.32   166.22    2.468     8.07
   1859.7    54.69   161.42    2.461     8.58
   1861.7    55.60   159.50    2.479     5.86
   1863.7    50.77   164.91    2.495     7.07
   1865.7    56.43   155.92    2.491     6.13
   1867.7    58.95   153.40    2.428     6.25
   1869.7    60.66   159.38    2.439     8.29
   1871.7    53.52   156.43    2.452     4.81
   1873.7    58.31   154.56    2.425     6.05
   1875.8    44.86   158.34    2.493     6.07
   1877.8    42.17   156.65    2.442     6.41
   1879.8    47.38   154.14    2.446     5.47
   1881.8    47.79   151.89    2.437     5.49
   1883.8    44.79   156.84    2.451     4.79
   1885.8    35.36   155.88    2.405     5.18
   1887.8    42.02   153.63    2.340     4.56
   1889.8    35.94   158.15    2.401     5.20
   1891.8    42.67   150.56    2.353     4.28
   1893.8    40.34   149.14    2.351     4.75
   1895.8    34.05   150.99    2.389     4.31
   1897.8    34.74   152.39    2.409     5.12
   1899.8    31.61   152.95    2.354     4.07
   1901.8    34.71   151.60    2.359     2.58
   1903.8    37.96   152.98    2.408     4.91
   1905.8    29.44   148.90    2.343     3.08
   1907.8    34.71   155.61    2.431     3.19
   1909.8    29.97   151.80    2.343     3.16
   1911.8    28.38   154.84    2.243     4.65
   1913.8    30.67   152.98    2.337     1.77
   1915.8    26.57   153.38    2.316     5.92
   1917.8    28.20   153.81    2.346     4.19
   1919.8    25.40   153.69    2.315     3.46
   1921.8    37.92   154.39    2.277     3.19
   1923.8    30.14   156.36    2.227     3.41
   1925.9    27.23   153.81    2.262     3.56
   1927.9    30.99   155.41    2.231     3.62
   1929.9    29.87   153.76    2.236     3.52
   1931.9    29.71   157.97    2.277     3.12
   1933.9    33.40   153.09    2.315     2.87
   1935.9    34.40   159.73    2.258     2.89
   1937.9    29.76   155.60    2.189     2.85
   1939.9    30.16   152.62    2.250     3.91
   1941.9    32.01   157.05    2.275     3.48
   1943.9    24.63   155.58    2.198     0.66
   1945.9    28.58   159.96    2.213     3.55
   1947.9    40.97   156.83    2.214     3.20
   1949.9    43.01   157.97    2.178     3.06
   1951.9    36.42   155.01    2.231     2.79
   1953.9    40.77   159.28    2.197     4.04
   1955.9    40.81   155.03    2.215     3.94
   1957.9    53.03   157.84    2.159     2.61
   1959.9    46.39   164.42    2.174     3.61
   1961.9    42.64   165.22    2.217     2.56
   1963.9    40.61   165.07    2.171     2.30
   1965.9    39.32   162.35    2.252     2.97
   1967.9    47.90   165.42    2.165     4.24
   1969.9    45.43   166.31    2.188     4.39
   1971.9    44.16   164.21    2.214     4.12
   1973.9    48.67   171.66    2.118     4.38
   1976.0    48.35   170.89    2.103     4.31
   1978.0    60.86   168.95    2.111     3.48
   1980.0    59.07   170.37    2.222     4.45
   1982.0    56.94   171.62    2.149     4.85
   1984.0    64.31   166.80    2.273     4.93
   1986.0    60.11   172.08    2.147     5.39
   1988.0    57.76   171.78    2.177     5.13
   1990.0    68.67   171.77    2.232     4.97
   1992.0    66.08   174.34    2.251     5.68
   1994.0    61.10   180.30    2.254     4.94
   1996.0    65.78   178.16    2.221     4.39
   1998.0    64.29   175.87    2.215     5.11
   2000.0    63.46   179.46    2.199     4.79
