~Version Information
 VERS.                  2.0
 WRAP.                  NO
~Well Information
 STRT      .M           1000.0 : START DEPTH
 STOP      .M           2000.0 : STOP DEPTH
 STEP      .M           2.004 : STEP
 NULL      .            -999.25 : NULL VALUE
 WELL      .            SAMPLE_WELL_1 : WELL
 DATE      .            2023-01-01 : LOG DATE
~Curve Information
 DEPT      .M           : DEPTH
 GR        .API         : GAMMA RAY
 DT        .US/M        : SONIC TRANSIT TIME
 RHOB      .G/C3        : BULK DENSITY
 RT        .OHMM        : RESISTIVITY
~ASCII Log Data
   1000.0    49.67   168.19    2.295    11.53
   1002.0    45.77   169.88    2.281    10.29
   1004.0    47.59   160.84    2.252     9.90
   1006.0    49.80   164.99    2.229    10.37
   1008.0    41.51   161.21    2.288    10.06
   1010.0    40.29   160.89    2.282     9.65
   1012.0    46.37   159.92    2.308    10.38
   1014.0    42.00   158.54    2.303    10.41
   1016.0    35.99   160.15    2.326     9.53
   1018.0    39.02   157.29    2.269    10.46
   1020.0    34.04   159.41    2.349     8.18
   1022.0    33.14   157.99    2.310     8.75
   1024.0    35.15   156.93    2.392     8.15
   1026.1    25.77   154.69    2.288     7.04
   1028.1    25.83   154.98    2.391     8.29
   1030.1    29.87   157.80    2.336     8.07
   1032.1    27.53   156.68    2.309     9.20
   1034.1    32.38   152.53    2.322     8.31
   1036.1    27.10   154.79    2.335     6.80
   1038.1    24.78   156.03    2.371     8.93
   1040.1    36.07   149.61    2.382     8.24
   1042.1    29.16   154.81    2.345     7.55
   1044.1    30.27   151.50    2.373     6.73
   1046.1    24.32   154.31    2.466     5.97
   1048.1    27.95   150.75    2.456     6.27
   1050.1    30.75   147.95    2.411     7.28
   1052.1    25.97   148.23    2.401     7.75
   1054.1    32.42   152.29    2.411     7.31
   1056.1    28.94   152.73    2.437     5.52
   1058.1    30.68   149.76    2.377     4.86
   1060.1    30.02   153.60    2.414     5.72
   1062.1    40.48   147.86    2.363     4.04
   1064.1    33.75   151.90    2.452     5.56
   1066.1    30.36   149.12    2.468     5.04
   1068.1    38.74   150.64    2.428     4.65
   1070.1    31.49   152.55    2.516     3.61
   1072.1    38.20   150.47    2.409     5.16
   1074.1    30.56   151.89    2.405     4.20
   1076.2    34.19   155.62    2.477     3.56
   1078.2    41.44   151.96    2.515     2.08
   1080.2    44.80   155.82    2.545     4.24
   1082.2    43.77   151.26    2.464     5.57
   1084.2    43.90   155.80    2.530     5.37
   1086.2    44.47   158.50    2.489     3.58
   1088.2    41.10   149.17    2.488     3.36
   1090.2    45.50   153.84    2.534     4.13
   1092.2    47.93   157.78    2.528     2.87
   1094.2    55.41   156.36    2.443     3.83
   1096.2    53.97   158.36    2.568     4.12
   1098.2    46.98   156.51    2.567     4.42
   1100.2    56.76   158.84    2.490     3.29
   1102.2    55.35   158.87    2.533     3.14
   1104.2    55.60   162.83    2.539     2.55
   1106.2    62.17   161.22    2.532     2.54
   1108.2    65.25   162.12    2.501     2.98
   1110.2    66.22   160.96    2.498     3.41
   1112.2    60.49   161.50    2.525     3.81
   1114.2    63.94   162.37    2.575     2.41
   1116.2    67.79   165.19    2.550     4.23
   1118.2    71.62   163.92    2.514     2.80
   1120.2    67.01   166.47    2.561     2.99
   1122.2    69.35   171.72    2.416     2.40
   1124.2    66.78   169.50    2.576     1.06
   1126.3    67.49   167.30    2.460     3.71
   1128.3    76.53   171.92    2.515     3.61
   1130.3    79.65   168.69    2.484     2.81
   1132.3    74.82   165.42    2.476     3.11
   1134.3    79.94   168.80    2.573     3.50
   1136.3    78.12   167.44    2.506     1.87
   1138.3    74.77   172.03    2.537     2.74
   1140.3    79.40   173.74    2.519     3.84
   1142.3    84.64   178.67    2.538     2.26
   1144.3    78.79   176.07    2.520     3.55
   1146.3    85.57   175.46    2.463     2.29
   1148.3    69.12   178.83    2.551     3.82
   1150.3    83.10   171.97    2.489     3.49
   1152.3    80.30   178.81    2.443     2.30
   1154.3    78.80   180.85    2.485     4.61
   1156.3    80.33   175.91    2.558     3.18
   1158.3    71.90   183.14    2.528     3.21
   1160.3    78.78   181.77    2.476     4.12
   1162.3    80.81   180.51    2.472     4.98
   1164.3    84.94   183.74    2.469     3.35
   1166.3    76.52   188.41    2.560     4.33
   1168.3    74.85   183.74    2.488     4.74
   1170.3    75.49   184.43    2.485     5.07
   1172.3    80.49   183.17    2.504     4.78
   1174.3    77.42   182.66    2.467     4.48
   1176.4    73.18   187.30    2.442     4.24
   1178.4    76.48   183.50    2.439     5.11
   1180.4    73.89   186.20    2.438     4.32
   1182.4    76.38   185.18    2.434     2.99
   1184.4    68.65   187.89    2.459     5.82
   1186.4    69.04   187.81    2.426     6.35
   1188.4    67.63   189.82    2.447     3.89
   1190.4    62.14   186.16    2.408     5.13
   1192.4    67.94   186.94    2.408     6.59
   1194.4    66.51   185.32    2.319     7.91
   1196.4    64.17   186.77    2.429     6.44
   1198.4    61.87   188.90    2.400     6.01
   1200.4    55.77   189.89    2.420     6.62
   1202.4    58.36   185.69    2.257     8.04
   1204.4    57.26   190.14    2.450     6.59
   1206.4    54.00   191.29    2.355     6.65
   1208.4    55.14   188.83    2.398     7.08
   1210.4    55.97   192.35    2.305     6.88
   1212.4    60.47   185.55    2.365     7.92
   1214.4    52.20   184.17    2.292     9.31
   1216.4    51.12   182.59    2.302     8.45
   1218.4    48.40   190.50    2.397     8.17
   1220.4    39.65   188.09    2.307     8.33
   1222.4    45.87   185.97    2.317     7.49
   1224.4    44.89   186.44    2.337     9.64
   1226.5    53.22   182.52    2.315     9.05
   1228.5    41.35   191.02    2.295     9.15
   1230.5    42.12   184.76    2.298    12.04
   1232.5    39.62   184.22    2.373     9.91
   1234.5    33.97   185.24    2.269     9.25
   1236.5    42.16   184.08    2.273     9.69
   1238.5    39.60   182.86    2.302    11.13
   1240.5    38.82   179.73    2.298    10.49
   1242.5    31.14   182.27    2.296     9.42
   1244.5    39.58   185.15    2.269    11.49
   1246.5    27.63   183.14    2.192    10.39
   1248.5    34.91   183.08    2.298    12.60
   1250.5    40.73   177.12    2.182    12.14
   1252.5    27.49   175.21    2.235    11.09
   1254.5    28.74   176.63    2.188    12.64
   1256.5    31.05   176.34    2.212    11.83
   1258.5    28.35   178.18    2.223    12.62
   1260.5    23.96   170.44    2.219    12.49
   1262.5    30.31   177.72    2.219    11.58
   1264.5    25.75   172.72    2.263    11.90
   1266.5    31.94   171.25    2.213    13.39
   1268.5    26.49   168.99    2.182    12.44
   1270.5    36.57   166.58    2.227    12.53
   1272.5    27.53   171.98    2.234    12.23
   1274.5    29.74   169.30    2.134    13.47
   1276.6    34.72   165.09    2.205    14.91
   1278.6    27.07   164.29    2.207    12.54
   1280.6    33.50   165.89    2.165    13.53
   1282.6    38.49   170.12    2.230    14.76
   1284.6    27.57   164.52    2.168    13.68
   1286.6    35.55   160.65    2.178    14.22
   1288.6    36.73   163.03    2.165    13.12
   1290.6    39.76   162.22    2.171    14.41
   1292.6    32.68   155.43    2.126    14.01
   1294.6    33.41   161.32    2.112    15.04
   1296.6    41.89   160.19    2.234    15.29
   1298.6    42.15   161.83    2.136    16.50
   1300.6    43.17   164.05    2.131    14.96
   1302.6    44.80   161.60    2.085    14.83
   1304.6    41.98   157.50    2.147    14.79
   1306.6    46.95   154.81    2.120    14.42
   1308.6    48.54   163.45    2.240    15.02
   1310.6    45.89   156.62    2.217    14.57
   1312.6    57.61   155.99    2.151    14.98
   1314.6    53.45   155.41    2.270    15.94
   1316.6    48.21   155.50    2.222    14.11
   1318.6    57.03   154.22    2.172    15.86
   1320.6    51.94   152.75    2.088    16.02
   1322.6    60.41   152.45    2.282    14.89
   1324.6    63.32   153.40    2.138    13.30
   1326.7    56.81   151.82    2.132    14.51
   1328.7    65.34   151.13    2.242    16.04
   1330.7    64.51   152.94    2.302    14.97
   1332.7    67.49   151.84    2.264    14.18
   1334.7    73.11   156.07    2.235    14.56
   1336.7    65.82   145.55    2.241    15.61
   1338.7    65.03   154.81    2.256    15.35
   1340.7    65.68   155.14    2.257    14.68
   1342.7    67.13   146.82    2.243    14.54
   1344.7    71.19   151.16    2.240    14.47
   1346.7    73.91   151.13    2.239    14.00
